[
    { "lat": 12.9716, "lng": 77.5946, "name": "Bangalore" },
    { "lat": 13.0827, "lng": 80.2707, "name": "Chennai" },
    { "lat": 28.6139, "lng": 77.2090, "name": "Delhi" },
    { "lat": 19.0760, "lng": 72.8777, "name": "Mumbai" },
    { "lat": 22.5726, "lng": 88.3639, "name": "Kolkata" }
]
